[
  {
    "id": "amsterdam",
    "label": "Amsterdam",
    "address": "Herengracht 477 1017 BS Amsterdam, Netherlands",
    "coordinates": [52.3659977, 4.8901722],
    "tel": "+31 20 708 2572",
    "image": "http://www.akqa.com/contact/amsterdam/img/amsterdam-large.v3.jpg"
  },
  {
    "id": "atlanta",
    "label": "Atlanta",
    "address": "Ten 10th Street, NW Suite 250, Atlanta, GA 30309, United States",
    "coordinates": [33.7817942, -84.3871875],
    "tel": "+1 404 334 3999",
    "image": "http://www.akqa.com/contact/atlanta/img/atlanta-large.jpg"
  },
  {
    "id": "berlin",
    "label": "Berlin",
    "address": "Monbijouplatz 4 10178 Berlin, Germany",
    "coordinates": [52.523375, 13.3990625],
    "tel": "+49 30 991 91 6100",
    "image": "http://www.akqa.com/contact/berlin/img/berlin-large.jpg"
  },
  {
    "id": "gurgaon",
    "label": "Gurgaon",
    "address": "4th Floor, 61 Chimes, Sector 44 Gurgaon 122002, India",
    "coordinates": [28.451892, 77.068083],
    "tel": "+91 124 441 7501",
    "image": "http://www.akqa.com/contact/gurgaon/img/gurgaon-large.v2.jpg"
  },
  {
    "id": "london",
    "label": "London",
    "address": "1 St John’s Lane London, EC1M 4BL, United Kingdom",
    "coordinates": [51.5206516, -0.1024601],
    "tel": "+44 207 780 4786",
    "image": "http://www.akqa.com/contact/london/img/london-large.v3.jpg"
  },
  {
    "id": "new-york",
    "label": "New York",
    "address": "17th Floor, 114 Fifth Avenue New York, NY 10011, United States",
    "coordinates": [40.7379574, -73.9927205],
    "tel": "+1 212 989 2572",
    "image": "http://www.akqa.com/contact/new-york/img/office-large.jpg"
  },
  {
    "id": "paris",
    "label": "Paris",
    "address": "19 Rue des Saints-Peres 75006 Paris, France",
    "coordinates": [48.856803, 2.3320558],
    "tel": "+33 1 70 38 26 00",
    "image": "http://www.akqa.com/contact/paris/img/paris-large.jpg"
  },
  {
    "id": "portland",
    "label": "Portland",
    "address": "1120 NW Couch Street, Suite 650 Portland, OR 97209, United States",
    "coordinates": [45.5236849, -122.6827884],
    "tel": "+1 503 820 4300",
    "image": "http://www.akqa.com/contact/portland/img/portland-large.jpg"
  },
  {
    "id": "san-francisco",
    "label": "San Francisco",
    "address": "5th floor, 360 Third St San Francisco, CA 94107, United States",
    "coordinates": [37.7825471, -122.3978904],
    "tel": "+1 415 645 9400",
    "image": "http://www.akqa.com/contact/san-francisco/img/san-francisco-large.jpg"
  },
  {
    "id": "sao-paulo",
    "label": "São Paulo",
    "address": "Rua Fidalga 603 São Paulo 05432-070, Brasil",
    "coordinates": [-23.55457, -46.691305],
    "tel": "",
    "image": "http://www.akqa.com/contact/sao-paulo/img/office-large-b.jpg"
  },
  {
    "id": "shanghai",
    "label": "Shanghai",
    "address": "3rd Floor, Building 11 No.207 Meng Zi Road, 200023 Shanghai, China",
    "coordinates": [31.2011881, 121.4796842],
    "tel": "+86 21 2312 2572",
    "image": "http://www.akqa.com/contact/shanghai/img/shanghai-large.jpg"
  },
  {
    "id": "tokyo",
    "label": "Tokyo",
    "address": "Hiroo SK Building B1F 2-36-13 Ebisu, Shibuya-ku, 150-0013, Tokyo, Japan",
    "coordinates": [35.6465383, 139.7241776],
    "tel": "+81 3 5789 7550",
    "image": "http://www.akqa.com/contact/tokyo/img/office-large.jpg"
  },
  {
    "id": "washington-dc",
    "label": "Washington D.C.",
    "address": "5th Floor, 3299 K St, NW Washington D.C., 20007, United States",
    "coordinates": [38.9029624, -77.0649763],
    "tel": "+1 202 337 2572",
    "image": "http://www.akqa.com/contact/washington-dc/img/washington-dc-large.jpg"
  }
]